,City,Lat,Lng,Max Temp,Humidity,Cloudiness,Wind Speed,Country,Date
0,Laguna,38.421,-121.4238,85.96,55,0,9.22,US,1660326246
1,Ribeira Grande,38.5167,-28.7,81.0,74,20,13.8,PT,1660326249
2,Sept-Îles,50.2001,-66.3821,70.05,67,20,13.8,CA,1660326061
3,Ahipara,-35.1667,173.1667,50.02,73,92,6.38,NZ,1660326251
4,Punta Arenas,-53.15,-70.9167,37.42,93,75,8.05,CL,1660326158
5,Springbok,-29.6643,17.8865,47.61,88,74,3.51,ZA,1660326254
6,Bredasdorp,-34.5322,20.0403,48.04,83,43,5.57,ZA,1660326255
7,Ancud,-41.8697,-73.8203,46.31,70,100,9.22,CL,1660326258
8,Nome,64.5011,-165.4064,48.27,93,100,8.05,US,1660326260
9,Poum,-20.2333,164.0167,72.12,66,28,24.2,NC,1660326262
10,Puerto Ayora,-0.7393,-90.3518,76.96,90,100,8.01,EC,1660326263
11,Khatanga,71.9667,102.5,43.59,63,33,7.72,RU,1660326265
12,New Norfolk,-42.7826,147.0587,47.91,85,68,2.1,AU,1660326267
13,Tiksi,71.6872,128.8694,36.81,90,65,3.8,RU,1660326269
14,Haines Junction,60.7522,-137.5108,53.55,87,100,3.44,CA,1660326270
15,Arraial do Cabo,-22.9661,-42.0278,71.56,60,20,10.36,BR,1660326272
16,Vaini,-21.2,-175.2,69.96,83,40,8.05,TO,1660326273
17,Saint Paul Harbor,57.79,-152.4072,54.91,88,100,8.05,US,1660326275
18,Dikson,73.5069,80.5464,46.56,86,100,29.12,RU,1660326276
19,Portland,45.5234,-122.6762,74.28,65,20,7.0,US,1660326026
20,Chokurdakh,70.6333,147.9167,38.05,71,100,8.01,RU,1660326279
21,San Cristobal,7.7669,-72.225,80.78,41,32,7.02,VE,1660326280
22,Nanlong,31.3533,106.0631,86.32,59,96,2.19,CN,1660326282
23,Rikitea,-23.1203,-134.9692,72.99,74,100,23.47,PF,1660326283
24,Ushuaia,-54.8,-68.3,40.62,60,0,2.3,AR,1660326177
25,Jamestown,42.097,-79.2353,75.06,30,0,10.36,US,1660326248
26,Yerofey Pavlovich,53.9667,121.9667,54.48,84,100,3.18,RU,1660326288
27,Hualmay,-11.0964,-77.6139,66.81,67,30,10.6,PE,1660326291
28,Calvinia,-31.4707,19.776,47.41,80,96,8.79,ZA,1660326292
29,Mahébourg,-20.4081,57.7,69.26,83,75,17.27,MU,1660326294
30,Bra,44.703,7.8556,82.53,46,9,3.47,IT,1660326295
31,Aklavik,68.2191,-135.0107,64.94,49,9,7.2,CA,1660326297
32,Danielskuil,-28.1887,23.5395,58.37,29,97,8.08,ZA,1660326298
33,Mount Gambier,-37.8333,140.7667,45.59,96,81,3.49,AU,1660326299
34,Bambous Virieux,-20.3428,57.7575,69.22,83,75,17.27,MU,1660326301
35,Geraldton,-28.7667,114.6,48.61,61,3,16.11,AU,1660326302
36,Busselton,-33.65,115.3333,61.21,55,100,21.52,AU,1660326304
37,Qaanaaq,77.484,-69.3632,40.73,76,99,17.22,GL,1660326305
38,Kapaa,22.0752,-159.319,76.19,87,75,11.5,US,1660326307
39,Mataura,-46.1927,168.8643,44.47,90,75,2.39,NZ,1660326309
40,Bulungu,-4.55,18.6,85.71,16,90,2.42,CD,1660326311
41,Nikolskoye,59.7035,30.7861,71.49,79,11,1.7,RU,1660326312
42,Māngrol,21.1167,70.1167,80.47,85,70,19.62,IN,1660326314
43,Albany,42.6001,-73.9662,78.64,35,25,1.01,US,1660326111
44,Abhā,18.2164,42.5053,78.62,78,95,6.91,SA,1660326318
45,Cherskiy,68.75,161.3,36.21,86,54,13.02,RU,1660326319
46,Tiznit Province,29.5833,-9.5,91.92,27,25,1.9,MA,1660326321
47,Faya,18.3851,42.4509,78.91,71,93,4.61,SA,1660326322
48,San Miguel de Tucumán,-26.8241,-65.2226,68.0,37,82,3.44,AR,1660326326
49,Coyhaique,-45.5752,-72.0662,39.81,81,100,11.5,CL,1660326329
50,Karia,11.7306,11.1629,77.88,75,98,7.83,NG,1660326331
51,La Ronge,55.1001,-105.2842,59.25,82,100,10.36,CA,1660326326
52,Esperance,-33.8667,121.9,48.38,76,23,15.5,AU,1660326334
53,Hithadhoo,-0.6,73.0833,82.8,76,100,13.4,MV,1660326336
54,Thomaston,32.8882,-84.3266,87.1,66,75,4.61,US,1660326337
55,Leningradskiy,69.3833,178.4167,34.29,90,100,16.37,RU,1660326339
56,Klaksvík,62.2266,-6.589,52.72,80,98,18.32,FO,1660326340
57,Mount Isa,-20.7333,139.5,56.97,51,0,6.91,AU,1660326342
58,Richards Bay,-28.783,32.0377,70.05,82,46,15.48,ZA,1660326343
59,Castro,-24.7911,-50.0119,62.98,55,5,8.68,BR,1660326345
60,Constitución,-35.3333,-72.4167,54.5,75,67,7.9,CL,1660326236
61,Talnakh,69.4865,88.3972,49.12,84,25,8.08,RU,1660326349
62,Hilo,19.7297,-155.09,84.27,90,75,1.99,US,1660326350
63,Port Alfred,-33.5906,26.891,60.17,73,100,15.75,ZA,1660326352
64,Mar del Plata,-38.0023,-57.5575,62.62,78,40,13.8,AR,1660326354
65,Ayagoz,47.9714,80.4392,60.42,74,19,3.13,KZ,1660326357
66,Acapulco de Juárez,16.8634,-99.8901,78.62,83,100,5.75,MX,1660326157
67,Taoudenni,22.6783,-3.9836,112.75,8,0,3.09,ML,1660326360
68,São Filipe,14.8961,-24.4956,78.28,76,19,16.42,CV,1660326362
69,Ormara,25.2088,64.6357,82.35,90,97,21.83,PK,1660326364
70,Broken Hill,-31.95,141.4333,43.34,91,17,10.11,AU,1660326092
71,Pasaje,-3.3333,-79.8167,76.71,61,93,7.23,EC,1660326368
72,Saint-Philippe,-21.3585,55.7679,67.59,79,81,16.4,RE,1660326370
73,Zyryanskoye,56.8306,86.6258,52.34,80,16,6.15,RU,1660326372
74,Mandurah,-32.55,115.7,59.92,47,100,21.52,AU,1660326173
75,Kidal,18.4411,1.4078,101.1,20,7,6.38,ML,1660326375
76,Hambantota,6.1241,81.1185,79.66,80,57,16.4,LK,1660326378
77,Laas,46.6166,10.7002,61.54,80,77,2.01,IT,1660326380
78,Saint Anthony,45.0205,-93.218,66.13,71,40,20.71,US,1660326382
79,Lebu,-37.6167,-73.65,50.61,90,100,19.48,CL,1660326384
80,Bluff,-46.6,168.3333,44.8,84,85,6.2,NZ,1660326387
81,Vestmannaeyjar,63.4427,-20.2734,54.59,76,0,16.11,IS,1660326390
82,Río Gallegos,-51.6226,-69.2181,37.45,81,75,8.05,AR,1660326248
83,Makakilo City,21.3469,-158.0858,79.2,70,0,5.75,US,1660326392
84,Provideniya,64.3833,-173.3,48.87,97,100,5.64,RU,1660326393
85,San Fernando del Valle de Catamarca,-28.4696,-65.7852,79.59,31,88,1.99,AR,1660326396
86,Saint George,37.1041,-113.5841,90.25,44,0,3.44,US,1660326313
87,Bethel,41.3712,-73.414,83.17,41,0,11.5,US,1660326399
88,Pangai,-19.8,-174.35,73.51,56,75,5.75,TO,1660326401
89,Hermanus,-34.4187,19.2345,47.8,72,25,5.88,ZA,1660326402
90,Linjiang,41.8069,126.9078,64.71,99,100,0.54,CN,1660326404
91,Fuyu,45.1833,124.8167,61.48,82,30,7.67,CN,1660326405
92,Pisco,-13.7,-76.2167,64.02,82,75,8.05,PE,1660326407
93,Beringovskiy,63.05,179.3167,51.49,95,100,4.81,RU,1660326409
94,Kirakira,-10.4544,161.9205,77.34,88,91,6.31,SB,1660326410
95,Lüderitz,-26.6481,15.1594,58.82,76,14,11.72,NA,1660326412
96,Vilhena,-12.7406,-60.1458,86.22,35,0,6.91,BR,1660326413
97,Vila Velha,-20.3297,-40.2925,76.95,66,20,18.99,BR,1660326415
98,Port Hedland,-20.3167,118.5667,68.05,37,40,10.36,AU,1660326417
99,Longyearbyen,78.2186,15.6401,49.84,53,75,16.11,SJ,1660326418
100,Te Anau,-45.4167,167.7167,33.06,96,63,1.48,NZ,1660326420
101,Upernavik,72.7868,-56.1549,44.44,70,100,7.94,GL,1660326421
102,Tuktoyaktuk,69.4541,-133.0374,57.2,72,75,10.36,CA,1660326424
103,Pandan,14.0453,124.1694,79.88,84,68,3.27,PH,1660326426
104,Padang,-0.9492,100.3543,77.05,89,69,2.73,ID,1660326427
105,Cape Town,-33.9258,18.4232,56.1,68,75,5.75,ZA,1660326426
106,Severo-Kuril'sk,50.6789,156.125,54.82,97,100,11.34,RU,1660326431
107,Nishihara,26.1842,127.7558,83.48,85,20,4.61,JP,1660326433
108,Ilulissat,69.2167,-51.1,42.82,81,75,4.61,GL,1660326254
109,Hofn,64.2539,-15.2082,55.42,76,20,8.05,IS,1660326435
110,Cabo San Lucas,22.8909,-109.9124,94.6,58,0,8.05,MX,1660326437
111,Amuntai,-2.4177,115.2494,78.44,83,100,2.24,ID,1660326439
112,Touros,-5.1989,-35.4608,82.33,66,38,15.7,BR,1660326441
113,Alugan,12.2188,125.4808,78.48,88,91,2.42,PH,1660326442
114,Mapiripán,2.8892,-72.1256,85.73,61,49,6.71,CO,1660326444
115,Rognan,67.0953,15.3878,53.89,11,97,4.25,NO,1660326446
116,Butaritari,3.0707,172.7902,80.98,79,73,13.53,KI,1660326448
117,Rubtsovsk,51.5,81.25,66.27,72,85,5.66,RU,1660326450
118,Port Hardy,50.6996,-127.4199,59.18,94,100,4.61,CA,1660326451
119,Manzhouli,49.6,117.4333,54.39,82,10,5.06,CN,1660326453
120,Broome,42.2506,-75.833,77.02,39,0,14.0,US,1660326454
121,Peniche,39.3558,-9.3811,77.29,77,2,10.2,PT,1660326456
122,Kaitangata,-46.2817,169.8464,40.32,87,69,6.85,NZ,1660326457
123,Takikawa,43.5528,141.9064,67.57,98,68,1.7,JP,1660326213
124,Yulara,-25.2406,130.9889,44.15,71,0,7.58,AU,1660326460
125,Faanui,-16.4833,-151.75,78.66,71,26,16.15,PF,1660326462
126,Hobart,-42.8794,147.3294,48.25,94,100,4.61,AU,1660326302
127,Loveland,40.3978,-105.075,90.57,36,0,6.91,US,1660326209
128,Bay City,43.5945,-83.8889,77.32,48,0,5.01,US,1660326466
129,Ardakān,32.31,54.0175,83.41,11,0,6.31,IR,1660326468
130,Portree,57.4129,-6.1942,61.52,88,100,2.93,GB,1660326471
131,Torbay,47.6666,-52.7314,66.27,84,75,10.36,CA,1660326325
132,Kourou,5.1552,-52.6478,87.85,72,24,10.65,GF,1660326473
133,Bar Harbor,44.3876,-68.2039,78.66,63,100,8.99,US,1660326476
134,Tromsø,69.6496,18.957,48.22,87,75,11.5,NO,1660326477
135,Chabahar,25.2919,60.643,84.54,79,100,2.71,IR,1660326479
136,Bariloche,-41.1456,-71.3082,44.35,65,40,26.46,AR,1660326481
137,Tsovak,40.1825,45.6329,60.78,83,61,8.93,AM,1660326483
138,Santa Rosa,14.3122,121.1114,79.11,92,98,2.84,PH,1660326275
139,Deputatsky,69.3,139.9,42.15,90,100,3.62,RU,1660326485
140,Sangmélima,2.9333,11.9833,68.13,98,94,3.27,CM,1660326487
141,Katsuura,35.1333,140.3,80.67,86,100,18.72,JP,1660326488
142,Okhotsk,59.3833,143.3,57.0,90,100,3.04,RU,1660326490
143,Bandarbeyla,9.4942,50.8122,76.69,80,23,30.96,SO,1660326492
144,Ambilobe,-13.2,49.05,68.11,64,11,5.91,MG,1660326494
145,Atuona,-9.8,-139.0333,76.6,70,60,21.45,PF,1660326496
146,Visnes,59.3556,5.2242,64.78,82,20,9.22,NO,1660326497
147,Souillac,-20.5167,57.5167,68.38,83,75,17.27,MU,1660326501
148,Caravelas,-17.7125,-39.2481,76.06,62,95,12.91,BR,1660326502
149,Tasiilaq,65.6145,-37.6368,39.36,65,40,1.5,GL,1660326504
150,Jena,50.9333,11.5833,81.28,28,38,8.19,DE,1660326257
151,Trairi,-3.2778,-39.2689,84.02,62,13,16.49,BR,1660326441
152,Bathsheba,13.2167,-59.5167,88.41,66,40,21.85,BB,1660326509
153,Saldanha,-33.0117,17.9442,53.65,75,47,10.76,ZA,1660326510
154,Pindiga,9.9833,10.9333,78.1,88,100,3.67,NG,1660326512
155,Waingapu,-9.6567,120.2641,77.16,87,19,9.13,ID,1660326514
156,Hasaki,35.7333,140.8333,81.28,85,100,22.86,JP,1660326515
157,Staryy Nadym,65.6118,72.6842,56.86,94,90,15.32,RU,1660326518
158,Storm Lake,42.6411,-95.2097,85.24,57,0,14.97,US,1660326521
159,Santa Marta,11.2408,-74.199,87.85,74,20,6.91,CO,1660326302
160,Mehamn,71.0357,27.8492,51.71,93,100,28.77,NO,1660326524
161,Dumbrăviţa,45.7667,25.4333,68.09,44,51,5.3,RO,1660326526
162,Kohat,33.582,71.4493,87.87,57,89,1.14,PK,1660326528
163,Barrow,71.2906,-156.7887,51.82,82,100,17.27,US,1660326529
164,Gorontalo,0.5412,123.0595,77.18,94,93,1.74,ID,1660326531
165,Coahuayana Viejo,18.7333,-103.6833,90.07,54,100,6.49,MX,1660326533
166,Quepos,9.4236,-84.1652,82.42,76,99,4.45,CR,1660326534
167,Thompson,55.7435,-97.8558,60.96,72,75,11.5,CA,1660326535
168,Bengkulu,-3.8004,102.2655,75.58,90,60,3.83,ID,1660326537
169,Ostrovnoy,68.0531,39.5131,52.47,72,66,22.88,RU,1660326538
170,Myitkyina,25.3833,97.4,77.41,98,88,1.48,MM,1660326540
171,Meulaboh,4.1363,96.1285,79.07,80,57,1.9,ID,1660326542
172,Saskylakh,71.9167,114.0833,46.6,64,100,2.62,RU,1660326543
173,Klyuchi,52.2667,79.1667,67.1,75,91,4.09,RU,1660326545
174,Clyde River,70.4692,-68.5914,55.63,62,75,12.66,CA,1660326547
175,Dicabisagan,17.0818,122.4157,78.08,90,99,3.36,PH,1660326549
176,Whitehorse,60.7161,-135.0538,63.1,77,20,0.0,CA,1660326552
177,Bowen,-20.0167,148.2333,62.74,85,92,5.48,AU,1660326553
178,Värnamo,57.186,14.04,73.18,51,37,1.86,SE,1660326555
179,Lompoc,34.6391,-120.4579,73.85,74,20,8.05,US,1660326557
180,Magadan,59.5667,150.8,54.54,94,48,4.56,RU,1660326558
181,Genhe,50.7833,121.5167,49.23,96,65,3.11,CN,1660326560
182,Marsh Harbour,26.5412,-77.0636,83.66,67,2,8.59,BS,1660326562
183,Laredo,27.5064,-99.5075,82.69,74,100,8.05,US,1660326564
184,Avarua,-21.2078,-159.775,75.25,88,75,9.22,CK,1660326498
185,Koumra,8.9126,17.5539,71.08,98,89,4.29,TD,1660326567
186,Duarte,34.1394,-117.9773,99.45,38,16,1.01,US,1660326570
187,Shimoda,34.6667,138.95,76.1,90,100,9.64,JP,1660326571
188,Pevek,69.7008,170.3133,31.44,87,100,7.4,RU,1660326573
189,San Andrés,12.5847,-81.7006,75.22,100,75,5.75,CO,1660326574
190,Bānda,25.4833,80.3333,83.25,74,15,9.22,IN,1660326577
191,Don Luan,11.5333,106.9167,74.39,96,95,2.68,VN,1660326579
192,Qasigiannguit,68.8193,-51.1922,43.05,84,99,3.69,GL,1660326581
193,Paita,-5.0892,-81.1144,70.65,69,20,13.33,PE,1660326583
194,Tarko-Sale,64.9225,77.785,59.74,55,95,22.06,RU,1660326585
195,León,21.1167,-101.6667,82.15,50,100,6.22,MX,1660326574
196,Erenhot,43.6475,111.9767,72.14,52,2,3.18,CN,1660326588
197,Sola,-13.8833,167.55,78.37,73,100,22.53,VU,1660326590
198,Belyy Yar,53.6039,91.3903,62.85,77,0,2.24,RU,1660326591
199,Karratha,-20.7377,116.8463,68.79,62,4,10.6,AU,1660326593
200,Foumban,5.7291,10.9001,64.44,96,100,1.52,CM,1660326594
201,Gardenstown,57.671,-2.336,65.8,1,75,11.3,GB,1660326596
202,Port Moresby,-9.4431,147.1797,74.62,94,40,2.3,PG,1660326597
203,Aykhal,66.0,111.5,42.98,81,100,17.29,RU,1660326599
204,Eureka,40.8021,-124.1637,71.2,82,17,1.99,US,1660326599
205,Caucayá,-0.1934,-74.7819,88.88,49,38,3.22,CO,1660326601
206,Paamiut,61.994,-49.6678,44.28,85,92,6.06,GL,1660326604
207,Korla,41.7597,86.1469,80.98,31,99,13.78,CN,1660326605
208,Dryden,49.7833,-92.7503,71.89,53,75,8.05,CA,1660326608
209,Yambio,4.5721,28.3955,68.38,97,93,3.65,SS,1660326610
210,Ulaanbaatar,47.9077,106.8832,57.33,67,40,2.24,MN,1660326346
211,Inhapi,-9.2214,-37.7486,82.99,42,61,11.77,BR,1660326613
212,Gariāband,20.635,82.0614,75.36,93,98,5.73,IN,1660326615
213,Yumen,40.2833,97.2,79.56,49,97,8.63,CN,1660326617
214,Carnarvon,-24.8667,113.6333,68.99,73,72,9.62,AU,1660326620
215,Aksu,41.1231,80.2644,75.83,51,24,4.18,CN,1660326622
216,Jiazi,22.8779,116.067,81.1,83,17,4.81,CN,1660326624
217,Cooma,-36.2333,149.1333,38.97,100,75,4.61,AU,1660326626
218,Kiama,-34.6833,150.8667,55.58,85,97,1.34,AU,1660326628
219,Dustlik,40.5247,68.0358,80.08,25,0,13.62,UZ,1660326630
220,Mambajao,9.2504,124.7156,81.0,80,95,5.1,PH,1660326632
221,Evensk,61.95,159.2333,53.24,93,100,2.15,RU,1660326633
222,Cidreira,-30.1811,-50.2056,63.39,76,69,16.98,BR,1660326634
223,Yinchuan,38.4681,106.2731,84.9,53,69,2.73,CN,1660326637
224,Yerbogachën,61.2767,108.0108,46.72,89,92,5.23,RU,1660326639
225,Egvekinot,66.3167,-179.1667,50.38,85,100,1.86,RU,1660326641
226,Chaoyang,41.5703,120.4586,69.48,96,90,0.4,CN,1660326643
227,Shubarkuduk,49.1447,56.4872,81.66,34,38,12.41,KZ,1660326644
228,Ushtobe,45.2514,77.9838,71.4,36,0,7.9,KZ,1660326646
229,Dukat,62.55,155.55,46.42,94,47,1.95,RU,1660326647
230,Iqaluit,63.7506,-68.5145,47.93,81,75,11.5,CA,1660326649
231,Benjamin Constant,-4.3831,-70.0311,86.13,61,40,4.61,BR,1660326651
232,Arrondissement du Havre,49.5833,0.3333,90.34,26,0,16.11,FR,1660326653
233,Zhigansk,66.7697,123.3711,43.63,83,100,19.28,RU,1660326656
234,Canavieiras,-15.675,-38.9472,74.35,74,93,10.85,BR,1660326657
235,Sungai Penuh,-2.0833,101.3833,64.98,97,92,1.32,ID,1660326659
236,Maniitsoq,65.4167,-52.9,46.06,76,67,8.39,GL,1660326661
237,Gushikawa,26.3544,127.8686,83.43,94,0,0.0,JP,1660326662
238,Yellowknife,62.456,-114.3525,68.56,42,20,9.22,CA,1660326665
239,Novy Urengoy,66.0833,76.6333,59.85,69,100,11.5,RU,1660326667
240,Philadelphia,39.9523,-75.1638,86.38,39,40,9.22,US,1660326388
241,Mareeba,-17.0,145.4333,61.52,92,35,2.33,AU,1660326671
242,Finnsnes,69.2296,17.9811,52.75,87,70,17.83,NO,1660326673
243,Acajutla,13.5928,-89.8275,82.62,76,88,7.09,SV,1660326675
244,Hay River,60.8156,-115.7999,64.38,52,0,8.05,CA,1660326398
245,Deogarh,21.5333,84.7333,74.66,96,99,3.4,IN,1660326677
246,Chippewa Falls,44.9369,-91.3929,60.98,94,100,10.36,US,1660326498
247,Port Elizabeth,-33.918,25.5701,57.49,81,0,20.71,ZA,1660326681
248,Salalah,17.0151,54.0924,76.51,94,100,3.22,OM,1660326682
249,Simnas,54.4,23.65,67.05,82,9,8.08,LT,1660326684
250,Chui,-33.6971,-53.4616,61.68,73,62,7.45,UY,1660326686
251,Çorum Province,40.5,34.75,67.98,64,35,6.46,TR,1660326688
252,Alvarães,-3.2208,-64.8042,89.47,36,17,0.13,BR,1660326689
253,George Town,5.4112,100.3354,84.88,86,20,4.61,MY,1660326691
254,Tuatapere,-46.1333,167.6833,37.27,88,30,5.08,NZ,1660326693
255,Hong Kong,22.2855,114.1577,81.32,90,80,8.99,HK,1660326644
256,Chimbote,-9.0853,-78.5783,67.41,70,50,10.74,PE,1660326696
257,College,64.8569,-147.8028,63.81,72,75,3.44,US,1660326697
258,Middlebury (village),44.0153,-73.1673,74.01,50,40,8.05,US,1660326699
259,Newtownards,54.5924,-5.6909,77.74,47,20,8.05,GB,1660326700
260,Douglas,41.3,-96.167,92.59,43,0,12.66,US,1660326701
261,Jumla,29.2747,82.1838,61.66,92,33,2.95,NP,1660326703
262,Ulladulla,-35.35,150.4667,52.14,92,93,5.39,AU,1660326750
263,Cockburn Town,21.4612,-71.1419,82.54,71,88,15.7,TC,1660326752
264,Hirara,24.8,125.2833,84.85,74,80,5.91,JP,1660326754
265,Baykit,61.67,96.37,50.25,91,84,2.13,RU,1660326756
266,Sanremo,43.8182,7.7612,81.88,70,15,1.59,IT,1660326818
267,Tongren,27.7172,109.1853,78.06,80,46,2.35,CN,1660326820
268,Kruisfontein,-34.0033,24.7314,53.89,77,96,12.26,ZA,1660326823
269,Tilichiki,60.4667,166.1,52.7,94,83,2.98,RU,1660326824
270,Acala,16.5667,-92.8,86.95,58,84,3.31,MX,1660326826
271,Olinda,-8.0089,-34.8553,82.13,69,40,11.5,BR,1660326805
272,Tadine,-21.55,167.8833,68.85,67,34,16.33,NC,1660327021
273,Guerrero Negro,27.9769,-114.0611,83.3,56,14,5.75,MX,1660327023
274,Severnyy,50.677,36.5532,78.84,57,0,6.71,RU,1660327024
275,Shingū,33.7333,135.9833,78.58,93,97,10.92,JP,1660327026
276,Manville,40.5409,-74.5877,87.37,35,50,3.0,US,1660327027
277,Nemuro,43.3236,145.575,65.23,99,100,8.59,JP,1660327029
278,Nouadhibou,20.931,-17.0347,76.98,73,69,21.85,MR,1660327030
279,Nicolás Bravo,18.45,-88.9167,85.91,67,81,5.73,MX,1660327032
280,Tiarei,-17.5333,-149.3333,78.82,71,35,18.19,PF,1660327034
281,Taltal,-25.4,-70.4833,61.75,68,21,10.11,CL,1660327035
282,Calabozo,8.9242,-67.4293,87.06,64,44,3.74,VE,1660327037
283,Anuradhapura,8.3565,80.4173,78.3,81,82,8.9,LK,1660327039
284,Lucea,18.451,-78.1736,87.85,74,8,11.72,JM,1660327040
285,Rafai,4.95,23.9167,68.22,99,100,0.69,CF,1660327042
286,Jasper,37.2001,-94.3502,89.01,45,81,4.0,US,1660327043
287,Arlit,18.7369,7.3853,103.37,13,20,9.26,NE,1660327045
288,Bongandanga,1.5,21.05,74.12,90,100,2.84,CD,1660327046
289,Kargasok,59.0556,80.8572,53.46,70,15,7.81,RU,1660327048
290,Husavik,66.0449,-17.3389,50.07,76,52,4.72,IS,1660327049
291,Kiryat Gat,31.61,34.7642,81.81,100,0,7.2,IL,1660327051
292,Nova Era,-19.75,-43.0375,77.99,33,53,6.64,BR,1660327054
293,Porto-Novo,6.4965,2.6036,78.62,79,74,10.36,BJ,1660326943
294,Monrovia,6.3005,-10.7969,80.37,81,100,12.15,LR,1660326999
295,Comodoro Rivadavia,-45.8667,-67.5,53.46,26,0,28.77,AR,1660326827
296,Rawson,-43.3002,-65.1023,61.79,35,26,20.51,AR,1660327059
297,Nuuk,64.1835,-51.7216,46.44,70,3,3.06,GL,1660327061
298,Camacha,33.0833,-16.3333,71.02,68,20,9.22,PT,1660327062
299,Timberlake,37.3207,-79.2575,80.96,58,40,1.99,US,1660327063
300,Bertoua,4.5833,13.6833,68.58,98,95,3.94,CM,1660327066
301,Solnechnyy,50.7214,136.6319,52.92,94,75,1.79,RU,1660327068
302,Sorong,-0.8833,131.25,78.82,88,94,8.03,ID,1660327069
303,Kikwit,-5.041,18.8162,85.48,15,98,2.17,CD,1660327071
304,Novo Aripuanã,-5.1206,-60.3797,94.44,32,43,3.91,BR,1660327072
305,Codrington,-38.2667,141.9667,44.51,95,76,8.08,AU,1660327075
306,Ladário,-19.0047,-57.6017,82.69,28,0,12.66,BR,1660327076
307,Eyl,7.9803,49.8164,77.61,73,23,26.22,SO,1660327078
308,East London,-33.0153,27.9116,58.14,77,0,11.5,ZA,1660327024
309,Bonavista,48.6499,-53.1147,62.55,82,58,14.63,CA,1660327082
310,Camargo,27.6667,-105.1667,87.04,32,31,4.94,MX,1660327083
311,Imeni Poliny Osipenko,52.4201,136.4853,52.12,95,96,3.76,RU,1660327085
312,Vikhorevka,56.1201,101.1636,54.99,92,31,2.15,RU,1660327086
313,Talcahuano,-36.7167,-73.1167,53.28,87,100,19.57,CL,1660327088
314,Tual,-5.6667,132.75,79.95,83,100,17.6,ID,1660327089
315,Sørkjosen,69.8,20.9333,51.8,71,75,10.36,NO,1660327090
316,Sitka,57.0531,-135.33,66.7,80,20,4.21,US,1660327092
317,Severobaykal'sk,55.65,109.3167,50.45,91,92,1.57,RU,1660327093
318,Sinnamary,5.3833,-52.95,80.51,83,22,11.48,GF,1660327095
319,Cabedelo,-6.9811,-34.8339,84.87,72,29,13.0,BR,1660326947
320,Labuhan,-6.8844,112.2051,79.12,85,10,6.53,ID,1660327098
321,Grindavik,63.8424,-22.4338,53.55,76,75,11.5,IS,1660327099
322,Ekhabi,53.5102,142.9671,55.45,99,100,7.81,RU,1660327101
323,Amberley,39.2048,-84.428,78.55,49,86,3.0,US,1660327102
324,Ponte Nova,-20.4164,-42.9086,79.97,29,7,2.39,BR,1660327104
325,Oromocto,45.8351,-66.4792,75.34,70,75,5.75,CA,1660327106
326,Pacific Grove,36.6177,-121.9166,75.2,78,0,8.99,US,1660326981
327,Sittwe,20.15,92.9,79.39,89,100,20.36,MM,1660327109
328,Bontang,0.1333,117.5,80.33,84,73,7.45,ID,1660327110
329,Huanta,-12.9333,-74.25,70.2,40,29,0.56,PE,1660327113
330,Airai,-8.9266,125.4092,56.98,81,13,2.71,TL,1660327114
331,Bairiki Village,1.3292,172.9752,80.6,83,20,10.36,KI,1660327116
332,Norman Wells,65.282,-126.8329,62.64,55,20,3.44,CA,1660327117
333,Saint-Joseph,-21.3667,55.6167,66.58,76,82,15.5,RE,1660327118
334,Rūdbār,30.15,62.6,90.34,18,3,7.47,AF,1660327121
335,Canberra,-35.2835,149.1281,46.11,95,100,3.44,AU,1660327025
336,Kavaratti,10.5669,72.642,81.27,85,27,13.18,IN,1660327126
337,Ürümqi,43.801,87.6005,67.15,78,0,4.47,CN,1660326962
338,Porto de Mós,39.6019,-8.8184,86.09,61,6,8.43,PT,1660327129
339,Ponta do Sol,32.6667,-17.1,77.0,74,26,2.59,PT,1660327130
340,Manavālakurichi,8.1333,77.3,78.51,86,100,13.11,IN,1660327132
341,Margate,51.3813,1.3862,79.11,76,0,5.99,GB,1660327095
342,Lata,40.1629,-8.3327,72.81,47,5,8.28,PT,1660327134
343,Hervey Bay,-25.2986,152.8535,65.53,81,100,6.22,AU,1660327136
344,Seymchan,62.8833,152.4333,52.61,92,60,3.6,RU,1660327137
345,Lavrentiya,65.5833,-171.0,47.7,91,89,6.49,RU,1660327139
346,Blackpool,53.8167,-3.05,89.13,26,0,8.05,GB,1660327140
347,Gamba,-2.65,10.0,71.69,85,63,6.69,GA,1660327142
348,Belmonte,-15.8631,-38.8828,74.35,74,99,13.35,BR,1660327143
349,Port Blair,11.6667,92.75,75.24,94,100,13.8,IN,1660327145
350,Moose Factory,51.2585,-80.6094,75.2,43,75,8.05,CA,1660327146
351,Zhuhai,22.2769,113.5678,80.38,94,40,8.05,CN,1660327148
352,Arrondissement de Mende,44.6667,3.5,78.15,29,35,6.6,FR,1660327149
353,Majholi,23.5,79.9167,75.56,92,100,5.12,IN,1660327152
354,Tara,56.8944,74.371,60.49,98,86,4.34,RU,1660327154
355,Tottori-shi,35.5,134.2333,77.81,88,6,4.05,JP,1660327155
356,Hede,33.7681,120.2517,82.31,77,6,8.59,CN,1660327157
357,Henties Bay,-22.116,14.2845,56.25,85,1,7.38,NA,1660327158
358,Aginskoye,51.1,114.53,58.33,66,36,3.83,RU,1660327160
359,Nanortalik,60.1432,-45.2371,46.89,88,100,5.55,GL,1660327161
360,Yarim,14.298,44.3779,61.81,66,100,7.9,YE,1660327163
361,Puerto Cabezas,14.0351,-83.3888,85.96,84,75,6.91,NI,1660327164
362,Lázaro Cárdenas,17.9583,-102.2,86.83,62,71,8.88,MX,1660327166
363,Lagoa,39.05,-27.9833,74.34,77,4,9.24,PT,1660327167
364,Osakarovka,50.565,72.5692,67.44,54,47,6.64,KZ,1660327169
365,Sangar,63.9242,127.4739,59.63,85,87,1.52,RU,1660327170
366,Labytnangi,66.6572,66.4183,53.49,91,100,7.09,RU,1660327172
367,Borgarnes,64.5383,-21.9206,56.8,75,50,10.47,IS,1660327173
368,Bud,39.447,-86.1758,77.92,45,96,9.55,US,1660327175
369,Uíge,-7.6087,15.0613,73.58,32,25,2.17,AO,1660327176
370,Abbeville,50.1,1.8333,89.49,16,0,8.01,FR,1660327178
371,Kavieng,-2.5744,150.7967,80.31,75,93,9.17,PG,1660327179
372,Pitangui,-19.6828,-44.8903,80.94,21,2,5.86,BR,1660327181
373,Russellville,35.2784,-93.1338,89.98,58,61,5.01,US,1660327174
374,Vilyuysk,63.7553,121.6247,53.94,78,97,6.33,RU,1660327184
375,Cairns,-16.9167,145.7667,67.06,92,16,9.22,AU,1660326922
376,Faizabad,26.7833,82.1333,85.14,67,83,9.42,IN,1660327187
377,Hornepayne,49.2138,-84.7705,74.19,31,49,8.57,CA,1660327189
378,Quatre Cocos,-20.2078,57.7625,69.1,72,37,18.16,MU,1660327190
379,Namatanai,-3.6667,152.4333,77.81,82,100,5.06,PG,1660327192
380,Calama,-22.4667,-68.9333,70.29,7,0,20.71,CL,1660327193
381,Teknāf,20.8624,92.3058,78.69,90,100,15.32,BD,1660327195
382,San Quintín,30.4833,-115.95,76.08,73,14,9.4,MX,1660327196
383,Nara,34.6851,135.8049,83.5,59,20,6.46,JP,1660327061
384,Bilibino,68.0546,166.4372,46.99,89,100,3.91,RU,1660327199
385,Barranca,-10.75,-77.7667,65.64,68,42,10.67,PE,1660327200
386,Kamaishi,39.2667,141.8833,74.34,95,85,9.42,JP,1660327202
387,Wiwilí,13.6268,-85.8254,84.27,67,90,2.13,NI,1660327204
388,Tazovsky,67.4667,78.7,51.28,88,100,20.85,RU,1660327206
389,Kropotkin,45.4375,40.5756,80.08,48,67,8.88,RU,1660327207
390,Tokmak,47.2514,35.7058,78.39,59,38,6.24,UA,1660327212
391,Aitape,-3.1374,142.3475,76.84,90,100,3.49,PG,1660327216
392,Halvad,23.0167,71.1833,80.46,85,100,15.9,IN,1660327219
393,Mossamedes,-15.1961,12.1522,64.31,84,45,7.52,AO,1660327156
394,Hailun,47.45,126.9333,58.6,88,19,6.08,CN,1660327225
395,Viking,53.1001,-111.7684,71.71,59,27,5.26,CA,1660327230
396,Valday,57.9747,33.2525,62.24,77,50,2.51,RU,1660327232
397,Fortuna,40.5982,-124.1573,69.93,71,100,5.01,US,1660327233
398,Archidona,37.0965,-4.3887,82.9,26,2,9.46,ES,1660327235
399,Saryozek,44.3583,77.9753,69.04,32,0,5.48,KZ,1660327237
400,Indramayu,-6.3264,108.32,80.29,82,21,7.38,ID,1660327239
401,Paka,4.6374,103.4368,78.76,86,30,3.36,MY,1660327240
402,Quelimane,-17.8786,36.8883,71.73,79,2,8.21,MZ,1660327242
403,Teluknaga,-6.0989,106.6381,80.64,78,20,3.44,ID,1660327244
404,Abu Samrah,35.3029,37.1841,81.84,41,0,13.67,SY,1660327246
405,Ellensburg,46.9965,-120.5479,88.57,41,0,3.96,US,1660327248
406,Harper,4.375,-7.7169,77.14,73,100,10.07,LR,1660327249
407,Mopti,14.6667,-4.0,88.07,48,99,6.24,ML,1660327251
408,Alta Floresta,-9.8756,-56.0861,100.35,18,70,1.77,BR,1660327252
409,Rio Branco,-9.9747,-67.81,92.01,43,40,4.61,BR,1660327254
410,Mathathane,-22.2687,28.7495,72.66,27,0,8.68,BW,1660327256
411,Isabela,6.7085,121.9711,79.25,81,74,1.97,PH,1660327257
412,Jadu,31.953,12.0261,78.12,53,0,14.38,LY,1660327259
413,Susanville,40.4163,-120.653,79.12,21,0,4.0,US,1660327260
414,Seddon,-37.8068,144.8916,50.76,91,75,4.61,AU,1660327262
415,Rwamagana,-1.9487,30.4347,74.64,37,55,2.28,RW,1660327264
416,São Gonçalo do Amarante,-3.6072,-38.9683,81.12,47,14,14.23,BR,1660327266
417,Dingle,10.9995,122.6711,76.41,90,92,2.26,PH,1660327267
418,Shimanovsk,52.0,127.7,55.67,95,86,4.59,RU,1660327270
419,Hobyo,5.3505,48.5268,77.5,78,71,28.3,SO,1660327272
420,Valparaíso,-33.0393,-71.6273,59.23,58,40,10.36,CL,1660327113
421,Antofagasta,-23.65,-70.4,62.47,66,50,8.57,CL,1660327272
422,Ciudad Bolivar,8.1222,-63.5497,91.53,49,85,4.14,VE,1660327193
423,Sioux Lookout,50.1001,-91.917,73.47,53,75,10.36,CA,1660327042
424,High Level,58.5169,-117.136,63.75,51,52,6.31,CA,1660327240
425,Amapá,1.0,-52.0,86.16,57,91,4.68,BR,1660327282
426,Bradford,53.7939,-1.7521,82.49,41,0,10.36,GB,1660327283
427,Makkah al Mukarramah,21.4267,39.8261,91.83,38,100,12.26,SA,1660327285
428,La Palma,33.8464,-118.0467,98.19,55,0,5.01,US,1660327287
429,Darnétal,49.4453,1.1514,93.11,20,0,8.05,FR,1660327290
430,Havøysund,70.9963,24.6622,50.23,95,100,36.78,NO,1660327292
431,Almenara,-16.1836,-40.6944,74.57,62,100,4.65,BR,1660327128
432,Fairbanks,64.8378,-147.7164,63.82,72,99,0.81,US,1660327084
433,Homer,59.6425,-151.5483,61.03,93,100,3.0,US,1660327295
434,Corner Brook,48.9667,-57.9484,75.33,57,93,5.79,CA,1660327215
435,Narasannapeta,18.4167,84.05,81.54,83,100,1.88,IN,1660327299
436,São José da Coroa Grande,-8.8978,-35.1478,79.11,76,24,12.97,BR,1660327301
437,Gambo,4.6482,22.2633,71.65,94,100,1.01,CF,1660327302
438,Kudahuvadhoo,2.6708,72.8944,81.79,77,30,5.99,MV,1660327304
439,Palomares,17.15,-95.0667,85.01,71,65,4.79,MX,1660327306
440,Ocós,14.5094,-92.1933,83.55,69,82,5.01,GT,1660327308
441,Bonito,-21.1211,-56.4819,80.47,24,0,9.98,BR,1660327250
442,Loandjili,-4.7561,11.8578,71.01,82,100,3.2,CG,1660327310
443,Tianpeng,30.9866,103.9393,76.93,80,18,3.85,CN,1660327312
444,Piaçabuçu,-10.4056,-36.4344,79.54,73,32,10.94,BR,1660327316
445,Iskateley,67.6803,53.1512,48.52,90,75,10.42,RU,1660327317
446,Kununurra,-15.7667,128.7333,62.58,88,6,0.0,AU,1660327319
447,Ucluelet,48.9329,-125.5528,61.09,92,72,4.81,CA,1660327320
448,Waitara,-38.925,174.25,39.99,86,78,5.82,NZ,1660327322
449,Atar,20.5169,-13.0499,100.06,30,40,5.59,MR,1660327324
450,Dalbandin,28.8947,64.4101,92.5,31,84,9.31,PK,1660327325
451,Westport,41.1415,-73.3579,84.88,37,52,5.99,US,1660327327
452,Oussouye,12.485,-16.5469,75.22,92,100,11.9,SN,1660327328
453,Lundamo,63.1333,10.3,59.67,79,98,4.03,NO,1660327330
454,Noumea,-22.2763,166.4572,62.58,72,34,11.74,NC,1660327331
455,Tucumcari,35.1717,-103.725,89.44,31,20,9.22,US,1660327333
456,Coquimbo,-29.9533,-71.3436,57.25,68,15,6.46,CL,1660327335
457,San Jose,37.3394,-121.895,77.92,60,20,9.22,US,1660326624
458,Khāsh,28.2211,61.2158,82.08,16,100,14.2,IR,1660327338
459,San Patricio,28.017,-97.5169,94.89,52,96,7.07,US,1660327339
460,San Jerónimo,-11.9472,-75.2829,63.84,31,15,3.94,PE,1660327341
461,Azua,18.4532,-70.7349,82.06,62,17,12.71,DO,1660327202
462,Alofi,-19.0595,-169.9187,75.34,81,50,14.16,NU,1660327344
463,Roald,62.5833,6.1333,62.17,94,75,5.75,NO,1660327346
464,Phuket,8.0,98.25,80.82,83,20,5.75,TH,1660327347
465,Ballina,-28.8667,153.5667,62.02,91,100,12.77,AU,1660327349
466,Asău,46.4333,26.4,70.72,95,79,4.5,RO,1660327350
467,Qaqortoq,60.7167,-46.0333,46.53,90,100,2.37,GL,1660327352
468,Fukuechō,32.6881,128.8419,82.54,84,100,10.54,JP,1660327354
469,Beaverlodge,55.2166,-119.4361,72.46,51,45,5.48,CA,1660327355
470,Sonoita,31.85,-112.8333,93.34,40,59,8.21,MX,1660327356
471,Merauke,-8.4667,140.3333,74.62,88,97,10.31,ID,1660327358
472,Narsaq,60.9167,-46.05,57.42,82,100,1.28,GL,1660327359
473,Sabla,12.7525,4.7077,83.08,63,54,7.96,NG,1660327361
474,Warkworth,-36.4,174.6667,48.52,80,68,9.44,NZ,1660327363
475,Phan Thiet,10.9333,108.1,77.05,85,80,5.53,VN,1660327365
476,Safaga,26.7292,33.9365,91.51,35,21,16.78,EG,1660327367
477,Blythe,33.6103,-114.5964,102.79,28,33,7.4,US,1660327070
478,Murgab,37.4966,61.9714,80.64,22,0,10.67,TM,1660327370
479,Gao,16.6362,1.637,100.49,24,9,4.52,ML,1660327372
480,Marzuq,14.4,46.4667,84.83,44,98,13.53,YE,1660327373
481,San Ramon,37.7799,-121.978,79.48,61,0,10.0,US,1660327169
482,Carberry,49.8689,-99.3602,76.1,48,79,6.51,CA,1660327376
483,Verkhniy Avzyan,53.5289,57.5372,54.37,85,37,2.82,RU,1660327379
484,Gawler,-34.6,138.7333,51.31,96,76,4.09,AU,1660327241
485,Morant Bay,17.8815,-76.4093,93.7,65,8,12.08,JM,1660327382
486,Buraidah,26.326,43.975,101.21,14,20,13.76,SA,1660327384
487,Anekal,12.7,77.7,74.8,84,81,11.52,IN,1660327385
488,Osuna,37.2377,-5.1075,94.91,22,7,6.98,ES,1660327387
489,Funadhoo,6.15,73.2667,81.97,80,44,9.46,MV,1660327389
490,Srednekolymsk,67.45,153.6833,46.98,78,56,7.74,RU,1660327391
491,Khandyga,62.6667,135.6,53.98,94,81,0.94,RU,1660327393
492,Resplendor,-19.3256,-41.2553,83.39,31,100,2.77,BR,1660327396
493,Baraboo,43.4711,-89.7443,68.14,85,100,4.61,US,1660327331
494,Kemin,42.7846,75.6892,64.85,51,6,3.71,KG,1660327400
495,Chapais,49.7834,-74.8492,58.78,40,88,4.85,CA,1660327369
496,Lakes Entrance,-37.8811,147.981,37.17,86,18,3.71,AU,1660327402
497,‘Āhuimanu,21.4447,-157.8378,80.37,70,64,5.99,US,1660327404
498,Souris,49.6172,-100.2612,77.38,48,30,4.63,CA,1660327406
499,Hildburghausen,50.4255,10.7318,74.77,46,38,7.92,DE,1660327408
500,Yar-Sale,66.8333,70.8333,51.93,94,58,7.25,RU,1660327409
501,Sørland,67.667,12.6934,53.46,82,100,18.63,NO,1660327411
502,Moyale,3.5167,39.0584,65.32,71,75,3.94,KE,1660327412
503,Vaitape,-16.5167,-151.75,78.76,69,59,15.77,PF,1660327414
504,Shepsi,44.0361,39.1489,77.7,78,5,3.02,RU,1660327415
505,Kumul,42.8,93.45,83.23,25,100,19.84,CN,1660327417
506,Marrakesh,31.6315,-8.0083,104.07,25,40,10.36,MA,1660327167
507,Hinton,53.4001,-117.5857,80.04,40,19,2.48,CA,1660327420
508,Oistins,13.0667,-59.5333,83.71,67,39,17.85,BB,1660327421
509,Eydhafushi,5.1033,73.0708,81.63,79,16,7.14,MV,1660327423
510,Biak,-0.9131,122.8766,75.97,87,37,2.55,ID,1660327424
511,Sirte,31.2089,16.5887,83.32,64,0,11.5,LY,1660327426
512,Lodeynoye Pole,60.726,33.5531,66.02,69,61,4.0,RU,1660327427
513,Umluj,25.0213,37.2685,91.22,52,92,7.43,SA,1660327429
514,Baruun-Urt,46.6806,113.2792,58.03,59,59,2.84,MN,1660327430
515,Russell,32.3502,-85.1999,88.92,64,78,4.12,US,1660327332
516,Mayskiy,47.6931,40.1025,76.41,25,100,13.15,RU,1660327434
517,Araouane,18.9048,-3.5265,97.16,33,85,10.16,ML,1660327436
518,Kailua,21.4022,-157.7394,80.65,72,77,5.99,US,1660327438
519,Anloga,5.7947,0.8973,76.12,80,79,14.14,GH,1660327440
520,San Juan,-31.5375,-68.5364,73.22,13,0,7.67,AR,1660327250
521,Voznesenskoye,54.89,42.7569,63.73,58,40,2.44,RU,1660327442
522,Guánica,17.9716,-66.908,91.29,68,100,13.51,PR,1660327444
523,Kribi,2.95,9.9167,76.12,89,90,8.66,CM,1660327445
524,Pierre,44.3683,-100.351,92.5,31,60,15.26,US,1660327235
525,Rāmgarh,23.6333,85.5167,77.09,93,71,2.55,IN,1660327448
526,Koupéla,12.1794,-0.3517,88.14,50,98,2.39,BF,1660327450
527,Adrar,20.5022,-10.0711,102.09,24,41,8.57,MR,1660327451
528,Bonoua,5.2741,-3.595,76.62,80,100,9.4,CI,1660327453
529,Cabra,37.4725,-4.4421,96.66,28,11,4.0,ES,1660327454
530,Dolores,-36.3132,-57.6792,63.57,54,76,9.84,AR,1660327456
531,Oudtshoorn,-33.5907,22.2014,50.0,78,93,3.89,ZA,1660327457
532,Dzilam González,21.2833,-88.9333,91.71,47,82,5.84,MX,1660327459
533,Mackay,-21.15,149.2,64.69,92,95,6.31,AU,1660327460
534,Penha,-26.7694,-48.6458,65.61,66,87,7.63,BR,1660327462
535,Fort Nelson,58.8053,-122.7002,72.16,47,31,3.33,CA,1660327464
536,Chegdomyn,51.1167,133.0167,50.32,95,46,2.33,RU,1660327466
537,Aksarka,66.5606,67.7975,54.34,97,100,6.67,RU,1660327468
538,Hattiesburg,31.3271,-89.2903,89.92,70,40,5.75,US,1660327297
539,Rønne,55.1009,14.7066,73.31,60,0,4.61,DK,1660327418
540,Necochea,-38.5473,-58.7368,63.48,53,2,13.89,AR,1660327473
541,Takoradze,4.8845,-1.7554,77.85,73,72,12.64,GH,1660327474
542,Khovu-Aksy,51.1333,93.6,52.92,87,71,0.87,RU,1660327476
543,Barcelos,41.5388,-8.6151,81.91,62,3,5.7,PT,1660327477
544,Sabang,5.8933,95.3214,82.31,74,10,18.12,ID,1660327479
545,Fairlie,55.756,-4.8556,78.91,68,0,5.28,GB,1660327480
546,Beauvechain,50.782,4.7718,88.99,28,0,11.52,BE,1660327209
