,City,Lat,Lng,Max Temp,Humidity,Cloudiness,Wind Speed,Country,Date
0,Maragogi,-9.0122,-35.2225,71.91,87,0,4.05,BR,1660279643
1,Hong Kong,22.2855,114.1577,78.33,96,93,1.01,HK,1660279434
2,Upernavik,72.7868,-56.1549,41.13,88,74,9.86,GL,1660279645
3,Māngrol,21.1167,70.1167,81.91,87,98,26.84,IN,1660279646
4,Mount Gambier,-37.8333,140.7667,53.51,94,75,9.22,AU,1660279648
5,Busselton,-33.65,115.3333,61.56,64,0,17.2,AU,1660279650
6,Kapaa,22.0752,-159.319,82.38,80,40,17.27,US,1660279652
7,Bluff,-46.6,168.3333,44.8,65,83,10.87,NZ,1660279653
8,Nanortalik,60.1432,-45.2371,43.41,91,45,5.7,GL,1660279654
9,Ushuaia,-54.8,-68.3,35.26,64,40,2.3,AR,1660279657
10,Bredasdorp,-34.5322,20.0403,51.76,93,100,9.71,ZA,1660279658
11,Punta Arenas,-53.15,-70.9167,32.11,86,0,8.05,CL,1660279440
12,Tuatapere,-46.1333,167.6833,45.82,79,81,4.99,NZ,1660279660
13,Cape Town,-33.9258,18.4232,53.11,89,75,3.44,ZA,1660279596
14,Barrow,71.2906,-156.7887,48.22,87,40,12.66,US,1660279663
15,Kitimat,54.0524,-128.6534,70.18,40,1,1.99,CA,1660279664
16,Mar del Plata,-38.0023,-57.5575,48.87,86,0,10.0,AR,1660279666
17,Puerto Ayora,-0.7393,-90.3518,67.55,100,100,4.0,EC,1660279667
18,Port Elizabeth,-33.918,25.5701,57.49,92,0,11.5,ZA,1660279669
19,Bengkulu,-3.8004,102.2655,82.51,77,65,4.65,ID,1660279670
20,Vaini,-21.2,-175.2,75.36,78,40,16.11,TO,1660279671
21,Khatanga,71.9667,102.5,54.72,49,97,9.06,RU,1660279673
22,Hobart,-42.8794,147.3294,58.05,72,75,8.05,AU,1660279599
23,‘Āhuimanu,21.4447,-157.8378,85.71,73,40,14.97,US,1660279675
24,Saint-Philippe,-21.3585,55.7679,70.21,80,80,17.05,RE,1660279676
25,Qaqortoq,60.7167,-46.0333,45.54,83,37,4.61,GL,1660279457
26,Codrington,-38.2667,141.9667,52.2,80,100,4.32,AU,1660279679
27,Wanning,18.8003,110.3967,86.27,72,100,9.86,CN,1660279680
28,Guérande,47.3291,-2.4283,67.42,51,0,10.42,FR,1660279682
29,Ribeira Grande,38.5167,-28.7,74.68,81,100,11.45,PT,1660279683
30,Halle,51.5,12.0,59.2,67,0,6.91,DE,1660279525
31,Saint Paul Harbor,57.79,-152.4072,56.71,72,75,10.36,US,1660279686
32,Ialibu,-6.2821,143.9935,59.63,97,100,1.95,PG,1660279687
33,Port Alfred,-33.5906,26.891,63.45,86,100,17.67,ZA,1660279688
34,Yellowknife,62.456,-114.3525,61.32,55,75,4.61,CA,1660279517
35,Albany,42.6001,-73.9662,66.61,83,0,5.03,US,1660279075
36,Ust-Tsilma,65.441,52.1498,58.06,93,98,6.96,RU,1660279692
37,Nouakchott,18.0858,-15.9785,82.33,84,43,10.63,MR,1660279694
38,Provideniya,64.3833,-173.3,50.36,93,100,15.99,RU,1660279696
39,Oshikango,-17.4,15.8833,53.31,21,0,6.87,NA,1660279697
40,New Norfolk,-42.7826,147.0587,57.7,73,87,1.12,AU,1660279699
41,Kuril'sk,45.2333,147.8833,66.6,93,100,3.67,RU,1660279700
42,Castro,-24.7911,-50.0119,44.01,99,10,5.57,BR,1660279701
43,Ahipara,-35.1667,173.1667,53.02,64,13,12.53,NZ,1660279703
44,Jamestown,42.097,-79.2353,63.99,45,0,6.91,US,1660279704
45,Rikitea,-23.1203,-134.9692,72.95,74,76,23.35,PF,1660279705
46,Pevek,69.7008,170.3133,35.73,93,96,14.47,RU,1660279707
47,Klaksvík,62.2266,-6.589,52.72,88,20,11.3,FO,1660279708
48,Lebu,-37.6167,-73.65,50.34,92,100,11.03,CL,1660279693
49,Avarua,-21.2078,-159.775,75.25,83,40,11.5,CK,1660279711
50,Atuona,-9.8,-139.0333,77.02,71,44,22.68,PF,1660279474
51,Praia da Vitória,38.7333,-27.0667,73.65,88,75,9.42,PT,1660279715
52,Taltal,-25.4,-70.4833,54.95,83,92,1.28,CL,1660279694
53,Roald,62.5833,6.1333,61.16,94,75,2.3,NO,1660279717
54,San Diego,32.7153,-117.1573,78.67,82,40,8.05,US,1660279150
55,Saskylakh,71.9167,114.0833,48.78,51,100,8.84,RU,1660279719
56,Dikson,73.5069,80.5464,46.83,80,91,26.24,RU,1660279721
57,Ochsenfurt,49.6643,10.0623,61.3,63,1,3.96,DE,1660279722
58,Seminole,28.7086,-81.2081,79.2,90,0,5.75,US,1660279723
59,Nouadhibou,20.931,-17.0347,69.78,88,33,17.27,MR,1660279726
60,Nizhniye Sergi,56.6614,59.3033,63.81,58,41,9.35,RU,1660279727
61,Adwa,14.1646,38.8955,62.17,92,100,2.53,ET,1660279729
62,Jieshi,22.8134,115.8257,83.46,77,42,7.31,CN,1660279730
63,Qaanaaq,77.484,-69.3632,36.21,77,98,7.34,GL,1660279731
64,Tarauacá,-8.1614,-70.7656,70.2,80,4,0.27,BR,1660279733
65,Betsiamites,48.9413,-68.646,61.2,83,67,6.78,CA,1660279734
66,Thompson,55.7435,-97.8558,66.36,72,20,6.91,CA,1660279736
67,Nome,64.5011,-165.4064,50.07,87,100,9.22,US,1660279737
68,Hermanus,-34.4187,19.2345,50.81,88,100,14.27,ZA,1660279738
69,Kieta,-6.2167,155.6333,83.68,71,100,3.65,PG,1660279740
70,Muswellbrook,-32.2667,150.9,52.54,97,100,0.98,AU,1660279741
71,Pāli,25.7667,73.3333,85.62,70,100,5.19,IN,1660279742
72,Kahului,20.8947,-156.47,84.22,67,0,18.41,US,1660279744
73,Yantal',56.8471,105.2542,68.38,66,10,4.94,RU,1660279745
74,Ponta Delgada,37.7333,-25.6667,74.5,78,20,11.5,PT,1660279747
75,Cap-aux-Meules,47.3821,-61.8597,68.02,88,100,11.5,CA,1660279749
76,Seoul,37.5683,126.9778,92.59,60,20,3.44,KR,1660279751
77,Hithadhoo,-0.6,73.0833,82.81,74,68,13.85,MV,1660279754
78,Ilulissat,69.2167,-51.1,41.02,87,100,3.44,GL,1660279756
79,Chokurdakh,70.6333,147.9167,57.27,44,42,12.01,RU,1660279757
80,Almaznyy,48.0448,40.045,83.3,29,100,17.05,RU,1660279759
81,Souillac,-20.5167,57.5167,68.38,73,75,17.27,MU,1660279760
82,Kaitangata,-46.2817,169.8464,45.75,72,92,6.44,NZ,1660279761
83,Jiuquan,39.7432,98.5174,87.51,37,100,1.83,CN,1660279763
84,Ventspils,57.3894,21.5606,58.93,100,43,3.44,LV,1660279764
85,Bălţi,47.7617,27.9289,66.15,85,98,10.18,MD,1660279765
86,Zhigansk,66.7697,123.3711,58.68,53,94,22.91,RU,1660279767
87,Black River,18.0264,-77.8487,78.06,83,24,4.47,JM,1660279768
88,Longyearbyen,78.2186,15.6401,44.44,65,75,11.5,SJ,1660279769
89,Sibolga,1.7427,98.7792,86.85,57,84,4.43,ID,1660279761
90,Opuwo,-18.0607,13.84,58.73,24,26,4.36,NA,1660279772
91,Carnarvon,-24.8667,113.6333,75.18,29,0,13.85,AU,1660279773
92,Mataura,-46.1927,168.8643,44.47,78,92,3.76,NZ,1660279775
93,Severo-Kuril'sk,50.6789,156.125,56.8,96,100,12.21,RU,1660279776
94,Ruston,32.5232,-92.6379,76.59,94,40,0.0,US,1660279777
95,Cidreira,-30.1811,-50.2056,58.53,87,0,12.88,BR,1660279779
96,Brodick,55.5754,-5.1472,49.84,82,1,5.12,GB,1660279780
97,Mayo,38.8876,-76.5119,78.75,76,0,10.36,US,1660279783
98,Nhamundá,-2.1861,-56.7131,75.76,57,43,2.28,BR,1660279784
99,Lake Charles,30.2131,-93.2044,78.78,96,0,0.0,US,1660279785
100,Bethel,41.3712,-73.414,75.65,64,47,6.87,US,1660279787
101,Forsytheganj,52.6333,29.7333,66.16,72,9,10.92,BY,1660279788
102,Coronado,32.6859,-117.1831,78.87,82,40,8.05,US,1660279789
103,East London,-33.0153,27.9116,58.14,88,0,9.22,ZA,1660279791
104,Ngunguru,-35.6167,174.5,52.68,63,7,15.5,NZ,1660279792
105,Murgab,37.4966,61.9714,78.67,44,0,9.22,TM,1660279793
106,Baharly,38.4362,57.4316,86.2,20,0,11.41,TM,1660279795
107,Pontianak,-0.0333,109.3333,89.58,66,75,3.44,ID,1660279796
108,Naze,28.3667,129.4833,86.92,73,86,1.48,JP,1660279797
109,Saint-Pierre,-21.3393,55.4781,70.29,64,0,5.75,RE,1660279799
110,Charagua,-19.8,-63.2167,51.49,42,0,4.07,BO,1660279800
111,Liberty,31.8335,-81.5004,73.51,94,20,3.44,US,1660279748
112,Butaritari,3.0707,172.7902,82.6,75,14,15.3,KI,1660279803
113,Teya,60.3778,92.6267,62.38,46,60,4.5,RU,1660279804
114,Kabakovo,54.5369,56.1517,66.49,63,0,4.47,RU,1660279806
115,Fairbanks,64.8378,-147.7164,73.36,49,0,0.0,US,1660279807
116,Tasiilaq,65.6145,-37.6368,29.35,70,6,3.71,GL,1660279809
117,Cabo San Lucas,22.8909,-109.9124,87.51,67,45,4.63,MX,1660279630
118,Storforshei,66.4043,14.5233,49.78,87,75,9.22,NO,1660279813
119,Shangrao,28.4532,117.9686,101.53,38,81,2.39,CN,1660279817
120,Mossamedes,-15.1961,12.1522,59.92,90,21,3.29,AO,1660279818
121,Vanavara,60.34,102.2797,62.19,54,74,9.46,RU,1660279820
122,Hilo,19.7297,-155.09,78.53,83,75,6.91,US,1660279822
123,San Jerónimo,-11.9472,-75.2829,47.43,79,15,2.86,PE,1660279825
124,Chabahar,25.2919,60.643,86.95,69,88,1.54,IR,1660279826
125,Katherine,-14.4667,132.2667,89.92,35,75,6.91,AU,1660279827
126,Auki,-8.7676,160.7034,81.0,80,62,1.01,SB,1660279829
127,Cherskiy,68.75,161.3,51.15,75,97,18.66,RU,1660279830
128,Tuktoyaktuk,69.4541,-133.0374,51.8,82,75,6.91,CA,1660279831
129,Port Lincoln,-34.7333,135.8667,57.18,69,18,18.66,AU,1660279834
130,Havelock,34.8791,-76.9013,84.18,80,0,14.97,US,1660279728
131,Airai,-8.9266,125.4092,71.98,57,55,2.62,TL,1660279836
132,Iqaluit,63.7506,-68.5145,40.73,80,20,5.75,CA,1660279838
133,Portland,45.5234,-122.6762,77.34,64,15,1.01,US,1660279823
134,Nikolskoye,59.7035,30.7861,68.88,80,66,7.11,RU,1660279840
135,Vestmannaeyjar,63.4427,-20.2734,52.18,89,100,18.52,IS,1660279841
136,North Bend,43.4065,-124.2243,57.85,100,100,4.61,US,1660279843
137,Lavrentiya,65.5833,-171.0,43.03,94,100,2.53,RU,1660279844
138,Altay,47.8667,88.1167,82.38,22,96,11.5,CN,1660279846
139,Ancud,-41.8697,-73.8203,49.62,94,100,27.09,CL,1660279847
140,Leningradskiy,69.3833,178.4167,44.17,84,100,3.71,RU,1660279848
141,Moussoro,13.6408,16.4901,81.01,69,97,6.62,TD,1660279851
142,Esperance,-33.8667,121.9,58.21,55,61,7.31,AU,1660279852
143,Itarema,-2.9248,-39.9167,76.21,86,59,13.2,BR,1660279853
144,Ketchikan,55.3422,-131.6461,61.27,82,0,6.91,US,1660279855
145,Faanui,-16.4833,-151.75,78.06,77,7,13.8,PF,1660279856
146,Puerto Rico,-26.796,-55.024,50.27,97,74,2.89,AR,1660279826
147,Geraldton,-28.7667,114.6,70.21,35,0,20.71,AU,1660279858
148,Saint-Augustin,51.226,-58.6502,62.06,91,100,11.9,CA,1660279860
149,Gagino,55.2314,45.0339,66.54,62,28,3.69,RU,1660279861
150,Bambous Virieux,-20.3428,57.7575,70.21,73,75,17.27,MU,1660279863
151,Asău,46.4333,26.4,60.28,66,13,3.29,RO,1660279864
152,Itamaracá,-7.7478,-34.8256,77.05,87,8,2.64,BR,1660279865
153,Half Moon Bay,37.4636,-122.4286,66.11,84,75,12.66,US,1660279869
154,Clyde River,70.4692,-68.5914,52.03,66,100,8.05,CA,1660279870
155,Ondo,7.1,4.8333,69.89,99,100,3.04,NG,1660279872
156,Aitape,-3.1374,142.3475,81.21,82,58,8.14,PG,1660280024
157,Sola,-13.8833,167.55,77.97,71,79,25.7,VU,1660280025
158,Necochea,-38.5473,-58.7368,45.79,83,0,10.36,AR,1660280027
159,Tura,25.5198,90.2201,86.77,64,27,4.99,IN,1660280028
160,Miyang,24.4042,103.4428,74.34,79,67,5.48,CN,1660280029
161,Sistranda,63.7256,8.834,51.76,79,93,8.43,NO,1660280031
162,Adeje,28.1227,-16.726,71.87,83,20,0.0,ES,1660280032
163,Tsaratanana,-16.7833,47.65,68.77,59,10,16.13,MG,1660280035
164,Mindelo,16.8901,-24.9804,76.55,73,20,23.02,CV,1660280036
165,Coyhaique,-45.5752,-72.0662,39.81,81,100,4.61,CL,1660280037
166,São Filipe,14.8961,-24.4956,77.29,79,52,13.94,CV,1660280039
167,Harper,4.375,-7.7169,75.24,82,100,11.21,LR,1660280040
168,Puerto del Rosario,28.5004,-13.8627,71.35,78,75,9.22,ES,1660280041
169,Dolisie,-4.1997,12.6739,65.93,90,86,3.51,CG,1660280043
170,Inhambane,-23.865,35.3833,69.78,88,20,3.44,MZ,1660280044
171,Bay Roberts,47.5999,-53.2648,58.51,94,100,2.82,CA,1660280045
172,Aklavik,68.2191,-135.0107,56.86,66,41,6.78,CA,1660280047
173,Margate,51.3813,1.3862,69.31,94,13,3.0,GB,1660280048
174,Dakar,14.6937,-17.4441,82.53,78,40,4.61,SN,1660280009
175,Gambēla,8.25,34.5833,69.85,97,100,2.3,ET,1660280051
176,Ampanihy,-24.7,44.75,66.0,56,0,6.78,MG,1660280052
177,Katsuura,35.1333,140.3,84.2,77,12,19.69,JP,1660280053
178,Sarkand,45.41,79.9186,81.34,31,67,10.87,KZ,1660280055
179,Kuala Lipis,4.1842,102.0468,92.14,54,74,1.34,MY,1660280056
180,Amapá,1.0,-52.0,70.86,98,83,1.86,BR,1660280057
181,San Patricio,28.017,-97.5169,85.86,78,100,3.24,US,1660280059
182,Saint Augustine,29.8947,-81.3145,78.03,75,100,3.58,US,1660280060
183,Umeå,63.8284,20.2597,57.9,67,0,10.36,SE,1660279952
184,Kumluca,36.3703,30.2869,84.4,54,0,0.83,TR,1660280063
185,Cobija,-11.0267,-68.7692,67.82,70,5,1.16,BO,1660280064
186,Aryanah,36.8601,10.1934,78.67,73,20,4.61,TN,1660280065
187,Kachīry,53.0675,76.1036,79.83,46,0,8.99,KZ,1660280067
188,Turtas,58.9417,69.1325,61.12,96,100,4.03,RU,1660280068
189,Lata,40.1629,-8.3327,57.81,94,0,1.34,PT,1660280070
190,Imbituba,-28.24,-48.6703,62.85,99,97,2.75,BR,1660279873
191,Bilibino,68.0546,166.4372,64.56,69,96,5.17,RU,1660280072
192,Skjervøy,70.0311,20.9714,51.8,83,100,41.07,NO,1660280073
193,Westport,41.1415,-73.3579,76.91,57,20,11.5,US,1660279832
194,Quatre Cocos,-20.2078,57.7625,70.09,67,91,20.87,MU,1660280076
195,Chifeng,42.2683,118.9636,72.16,60,92,6.04,CN,1660280077
196,Puerto Colombia,10.9878,-74.9547,80.69,85,100,5.03,CO,1660279923
197,Fortuna,40.5982,-124.1573,61.99,91,100,5.75,US,1660280080
198,Luanda,-8.8368,13.2343,69.8,78,75,3.44,AO,1660280081
199,Shitkino,56.3703,98.3543,69.1,75,43,5.57,RU,1660280082
200,Camabatela,-8.1881,15.375,58.42,37,84,3.87,AO,1660280084
201,Puerto Asís,0.5133,-76.5007,67.95,99,77,1.34,CO,1660280085
202,Grindavik,63.8424,-22.4338,49.95,100,75,6.91,IS,1660280086
203,Mareeba,-17.0,145.4333,77.72,62,45,7.0,AU,1660280088
204,Terbuny,52.1389,38.2789,69.8,69,1,14.79,RU,1660280089
205,Laguna,38.421,-121.4238,77.31,57,0,4.61,US,1660280090
206,Itupiranga,-5.1347,-49.3267,79.12,62,64,2.04,BR,1660280092
207,Sitka,57.0531,-135.33,61.9,95,84,3.15,US,1660280093
208,Skovorodino,53.9833,123.9167,64.33,78,100,4.9,RU,1660280094
209,San Quintín,30.4833,-115.95,72.3,83,73,10.31,MX,1660280096
210,Nuuk,64.1835,-51.7216,41.88,81,33,8.99,GL,1660280097
211,Rocha,-34.4833,-54.3333,46.31,94,0,5.79,UY,1660280098
212,Lorengau,-2.0226,147.2712,81.57,78,100,2.37,PG,1660280100
213,Carupano,10.6678,-63.2585,77.81,90,11,6.44,VE,1660280101
214,Piranhas,-16.4269,-51.8222,58.77,43,61,7.0,BR,1660280102
215,Cañasgordas,6.7499,-76.0254,62.4,98,94,1.52,CO,1660280104
216,Chake Chake,-5.2459,39.7666,76.32,71,65,13.11,TZ,1660280105
217,Haines Junction,60.7522,-137.5108,66.15,63,84,3.44,CA,1660280106
218,Mandalgovi,45.7625,106.2708,70.18,41,99,3.18,MN,1660280109
219,Denia,38.8408,0.1057,80.85,57,0,3.0,ES,1660280110
220,Shakhtinsk,49.71,72.5872,75.27,43,7,11.12,KZ,1660280112
221,Namtsy,62.7161,129.6658,69.26,70,100,4.72,RU,1660280113
222,Sauda,59.6506,6.3542,61.68,84,34,1.36,NO,1660280114
223,Bandarbeyla,9.4942,50.8122,82.33,56,78,30.31,SO,1660280116
224,Goderich,43.7501,-81.7165,67.91,77,0,5.75,CA,1660280105
225,Stephenville,32.2207,-98.2023,82.53,51,40,3.44,US,1660280118
226,Tiksi,71.6872,128.8694,40.19,82,100,7.96,RU,1660280119
227,Huoqiu,32.3394,116.2694,101.41,39,12,7.92,CN,1660280121
228,São José da Coroa Grande,-8.8978,-35.1478,72.73,86,1,3.58,BR,1660280122
229,Tommot,58.9564,126.2925,62.69,90,99,2.62,RU,1660280123
230,Nara,34.6851,135.8049,92.52,73,100,5.01,JP,1660280125
231,Torbay,47.6666,-52.7314,58.26,95,100,6.91,CA,1660280126
232,Boussé,12.6606,-1.8922,77.16,80,100,1.9,BF,1660280128
233,Khandagayty,50.7333,92.05,71.89,45,38,4.56,RU,1660280129
234,Husavik,66.0449,-17.3389,48.0,81,88,10.51,IS,1660280130
235,Paita,-5.0892,-81.1144,62.73,85,78,9.19,PE,1660280132
236,San Cristobal,7.7669,-72.225,75.38,97,53,2.64,VE,1660280133
237,Mairang,25.5667,91.6333,73.31,63,36,1.95,IN,1660280134
238,Xai-Xai,-25.0519,33.6442,64.38,74,0,11.34,MZ,1660280136
239,Narsaq,60.9167,-46.05,44.87,74,15,5.77,GL,1660280137
240,Gejiu,23.306,103.1635,65.7,79,88,6.2,CN,1660280138
241,Saint-Joseph,-21.3667,55.6167,70.21,77,59,15.75,RE,1660280140
242,Torrijos,39.9819,-4.2835,78.85,32,0,6.08,ES,1660280141
243,Arraial do Cabo,-22.9661,-42.0278,67.1,74,14,13.91,BR,1660280142
244,Brae,60.3964,-1.353,51.94,81,100,2.04,GB,1660280144
245,Port Blair,11.6667,92.75,84.24,79,75,14.97,IN,1660280095
246,Viljoenskroon,-27.2084,26.9485,49.71,38,46,6.38,ZA,1660280146
247,Batagay,67.6333,134.6333,65.66,55,55,7.96,RU,1660280147
248,Lubango,-14.9172,13.4925,56.71,20,20,3.98,AO,1660280062
249,Richards Bay,-28.783,32.0377,67.78,65,14,15.48,ZA,1660280150
250,Menongue,-14.6585,17.691,48.52,38,3,4.05,AO,1660280151
251,Atar,20.5169,-13.0499,89.31,45,48,9.37,MR,1660280152
252,Guerrero Negro,27.9769,-114.0611,72.48,81,25,12.55,MX,1660280154
253,Constitución,-35.3333,-72.4167,47.39,90,6,7.49,CL,1660280155
254,Ossora,59.2353,163.0719,63.32,78,52,10.29,RU,1660280156
255,Chemainus,48.9163,-123.7194,71.56,76,20,2.3,CA,1660280158
256,Butembo,0.15,29.2833,59.99,83,95,2.82,CD,1660280159
257,Kikwit,-5.041,18.8162,68.95,28,8,2.24,CD,1660280161
258,Norman Wells,65.282,-126.8329,68.04,40,20,5.75,CA,1660280162
259,Saint George,37.1041,-113.5841,85.24,48,0,6.91,US,1660280070
260,Pahrump,36.2083,-115.9839,92.25,31,2,3.0,US,1660279982
261,Omboué,-1.5746,9.2618,70.65,86,89,4.94,GA,1660280166
262,Salon,26.0333,81.45,90.23,59,62,15.05,IN,1660280167
263,Faya,18.3851,42.4509,66.31,68,87,2.24,SA,1660280168
264,Gwadar,25.1216,62.3254,88.74,65,100,5.1,PK,1660280170
265,Olinda,-8.0089,-34.8553,76.73,83,40,3.44,BR,1660280171
266,Saint Anthony,45.0205,-93.218,71.83,63,0,5.75,US,1660280172
267,Paamiut,61.994,-49.6678,44.47,75,0,4.63,GL,1660280174
268,Isangel,-19.55,169.2667,73.15,59,50,16.91,VU,1660279967
269,Presidencia Roque Sáenz Peña,-26.7852,-60.4388,52.81,76,86,6.38,AR,1660280178
270,Kirakira,-10.4544,161.9205,81.32,81,99,8.05,SB,1660280180
271,Chui,-33.6971,-53.4616,50.49,94,15,6.89,UY,1660280181
272,Sibu,2.3,111.8167,86.31,74,40,4.61,MY,1660280182
273,Pangnirtung,66.1451,-65.7125,47.82,74,27,2.62,CA,1660280184
274,Malbork,54.0359,19.0266,62.89,64,0,2.89,PL,1660280185
275,Chotěboř,49.7207,15.6702,61.65,77,10,2.93,CZ,1660280186
276,Bubaque,11.2833,-15.8333,79.11,83,99,15.84,GW,1660280188
277,Klyuchi,52.2667,79.1667,74.73,54,91,6.71,RU,1660280189
278,Benguela,-12.5763,13.4055,68.56,82,99,2.13,AO,1660280190
279,Puerto López,4.0845,-72.956,70.84,96,49,3.47,CO,1660280193
280,Yulara,-25.2406,130.9889,63.68,24,0,13.18,AU,1660280194
281,Hasaki,35.7333,140.8333,93.29,77,42,24.87,JP,1660280197
282,Quelimane,-17.8786,36.8883,62.55,94,40,0.0,MZ,1660280111
283,Evensk,61.95,159.2333,55.67,93,100,8.1,RU,1660280199
284,Cayenne,4.9333,-52.3333,78.1,1,0,0.0,GF,1660280201
285,Zhanakorgan,43.9098,67.2495,87.69,21,0,14.79,KZ,1660280202
286,Honāvar,14.2833,74.45,80.85,83,100,13.29,IN,1660280203
287,Wuwei,37.9281,102.6414,90.73,42,11,8.16,CN,1660280205
288,Comodoro Rivadavia,-45.8667,-67.5,51.66,50,0,2.3,AR,1660280206
289,Mount Isa,-20.7333,139.5,76.77,23,54,8.05,AU,1660280207
290,San Miguel de Tucumán,-26.8241,-65.2226,44.6,81,82,4.61,AR,1660280209
291,Mandurah,-32.55,115.7,67.91,58,0,18.68,AU,1660280210
292,Ushumun,52.7833,126.5333,60.84,74,100,5.37,RU,1660280211
293,Vila Franca do Campo,37.7167,-25.4333,74.19,89,94,7.11,PT,1660280213
294,Petropavlovsk-Kamchatskiy,53.0452,158.6483,57.79,100,75,6.71,RU,1660280214
295,Huarmey,-10.0681,-78.1522,61.9,86,22,8.43,PE,1660280215
296,Ocós,14.5094,-92.1933,81.32,73,93,2.28,GT,1660280217
297,Labuhan,-6.8844,112.2051,86.25,65,61,10.04,ID,1660280218
298,Sangar,63.9242,127.4739,65.37,81,89,3.33,RU,1660280220
299,Rumoi,43.9344,141.6428,77.29,74,14,11.03,JP,1660280221
300,Hobyo,5.3505,48.5268,78.62,66,43,22.3,SO,1660280222
301,Boa Vista,2.8197,-60.6733,78.78,83,75,3.44,BR,1660280224
302,Los Llanos de Aridane,28.6585,-17.9182,67.75,89,100,9.22,ES,1660280225
303,Zyryanka,65.75,150.85,77.18,46,35,16.67,RU,1660280226
304,Oranjestad,12.524,-70.027,82.35,83,20,20.71,AW,1660280228
305,Zhenlai,45.8495,123.2973,78.62,40,87,4.43,CN,1660280229
306,Elko,41.0002,-115.5012,76.64,41,29,1.99,US,1660280230
307,Kavaratti,10.5669,72.642,81.23,85,82,17.47,IN,1660280232
308,Ulladulla,-35.35,150.4667,59.92,68,100,2.66,AU,1660280233
309,Chirongui,-12.9319,45.1483,76.93,67,8,11.7,YT,1660280234
310,Kumul,42.8,93.45,97.39,18,99,8.88,CN,1660280236
311,Muros,42.7762,-9.0603,66.16,91,0,2.75,ES,1660280237
312,Paka,4.6374,103.4368,89.53,70,40,5.75,MY,1660280239
313,Omsukchan,62.5333,155.8,58.64,73,100,2.13,RU,1660280240
314,Bestöbe,52.4994,73.0975,76.77,50,0,10.29,KZ,1660280241
315,Killybegs,54.6333,-8.45,56.95,85,0,4.41,IE,1660280244
316,Saldanha,-33.0117,17.9442,51.85,84,100,9.08,ZA,1660280245
317,Hofn,64.2539,-15.2082,50.11,92,88,7.43,IS,1660280246
318,Domoni,-12.2569,44.5319,74.66,70,11,9.75,KM,1660280248
319,Kavieng,-2.5744,150.7967,83.28,73,100,12.57,PG,1660280249
320,Vardø,70.3705,31.1107,51.78,76,100,21.85,NO,1660280251
321,Bud,39.447,-86.1758,67.05,89,3,7.52,US,1660280253
322,Sørland,67.667,12.6934,49.86,80,100,21.3,NO,1660280254
323,Monte Patria,-30.6919,-70.9467,53.19,80,100,2.21,CL,1660280255
324,Gelibolu,40.4103,26.6708,73.04,75,1,10.96,TR,1660280257
325,Parsons,37.3403,-95.2611,69.87,58,45,8.41,US,1660280258
326,Mattru,7.6244,-11.8332,73.0,95,98,2.66,SL,1660280259
327,Fort Nelson,58.8053,-122.7002,62.19,72,40,4.61,CA,1660280261
328,Vytegra,61.0064,36.4481,64.53,79,56,11.07,RU,1660280262
329,Acaraú,-2.8856,-40.12,75.85,87,62,12.86,BR,1660280263
330,Killarney,52.05,-9.5167,58.62,82,0,2.53,IE,1660280265
331,Cockburn Town,21.4612,-71.1419,82.22,75,43,18.14,TC,1660280266
332,Bela,25.9333,81.9833,89.44,62,55,13.6,IN,1660280267
333,Ottawa,45.4112,-75.6981,64.83,59,20,14.97,CA,1660280134
334,Bentiu,9.2333,29.8333,70.84,97,100,4.05,SS,1660280271
335,Bluefields,12.0137,-83.7635,76.28,92,100,4.07,NI,1660280272
336,Dunedin,-45.8742,170.5036,48.79,64,75,4.0,NZ,1660280274
337,Doka,13.5167,35.7667,70.88,91,98,9.86,SD,1660280275
338,Namatanai,-3.6667,152.4333,83.97,65,59,10.54,PG,1660280276
339,Tessalit,20.1986,1.0114,87.4,43,87,23.09,ML,1660280278
340,Udachny,66.4167,112.4,43.12,88,100,16.75,RU,1660280279
341,Kedrovyy,56.1667,91.8167,70.21,42,20,5.53,RU,1660280281
342,Madison Heights,42.4859,-83.1052,64.83,67,0,1.99,US,1660280167
343,Tongliao,43.6125,122.2653,76.19,52,100,2.75,CN,1660280285
344,Bonavista,48.6499,-53.1147,57.6,93,100,10.13,CA,1660280286
345,Rawson,-43.3002,-65.1023,49.39,63,75,7.81,AR,1660280093
346,Vigrestad,58.5667,5.7,58.68,84,12,2.68,NO,1660280289
347,Sehithwa,-20.4667,22.7167,55.02,33,0,4.27,BW,1660280290
348,Prykolotne,50.1604,37.3474,73.22,57,100,15.37,UA,1660280292
349,Hirara,24.8,125.2833,88.07,79,75,6.91,JP,1660280293
350,Hohhot,40.8106,111.6522,86.29,58,0,6.71,CN,1660280294
351,Mehamn,71.0357,27.8492,51.75,82,100,28.77,NO,1660280296
352,Miyako,39.6367,141.9525,81.93,70,100,6.78,JP,1660280297
353,Hambantota,6.1241,81.1185,88.14,66,20,10.36,LK,1660280233
354,Pisco,-13.7,-76.2167,56.01,88,75,1.14,PE,1660280299
355,Karratha,-20.7377,116.8463,76.33,28,20,22.53,AU,1660280301
356,Jinchang,38.4953,102.1739,88.2,45,8,8.57,CN,1660280302
357,Merauke,-8.4667,140.3333,80.58,72,74,15.79,ID,1660280253
358,Altamont,42.2068,-121.7372,63.9,36,0,5.57,US,1660280307
359,Nueva Rosita,27.95,-101.2167,76.77,76,69,6.22,MX,1660280308
360,Broken Hill,-31.95,141.4333,56.26,58,50,19.51,AU,1660280191
361,Lubaczów,50.157,23.1234,55.51,80,1,3.0,PL,1660280311
362,Manggar,-2.8833,108.2667,85.15,72,51,10.65,ID,1660280312
363,Viloco,-16.95,-67.55,39.87,37,0,1.79,BO,1660280314
364,Minot,48.2325,-101.2963,63.81,45,100,11.72,US,1660280182
365,Sambava,-14.2667,50.1667,69.19,84,99,11.5,MG,1660280063
366,Gal'bshtadt,53.2264,78.9845,76.53,53,4,9.48,RU,1660280318
367,Puerto Madryn,-42.7692,-65.0385,49.98,63,81,11.41,AR,1660280092
368,Davila,18.4726,120.5763,85.98,71,83,5.03,PH,1660280320
369,Changping,40.2186,116.2197,85.64,64,97,2.86,CN,1660280322
370,Alofi,-19.0595,-169.9187,78.69,83,58,6.91,NU,1660280323
371,Bulgan,48.8125,103.5347,70.34,58,10,5.21,MN,1660280324
372,Mutoko,-17.397,32.2268,52.21,69,0,2.77,ZW,1660280326
373,Kasane,-17.8167,25.15,48.29,71,0,2.3,BW,1660280327
374,Padang,-0.9492,100.3543,84.25,73,37,5.5,ID,1660280328
375,Sungai Penuh,-2.0833,101.3833,76.91,73,53,3.36,ID,1660280330
376,Kruisfontein,-34.0033,24.7314,51.89,94,100,6.38,ZA,1660280331
377,Carutapera,-1.195,-46.02,76.01,85,28,6.13,BR,1660280333
378,Antsla,57.8256,26.5406,62.83,74,39,5.1,EE,1660280335
379,Mitsamiouli,-11.3847,43.2844,75.49,69,75,9.22,KM,1660280336
380,Vanimo,-2.6741,141.3028,82.85,76,42,5.95,PG,1660280337
381,Dibulla,11.2725,-73.3091,77.83,86,100,4.45,CO,1660280339
382,Ponta do Sol,32.6667,-17.1,69.71,77,11,3.4,PT,1660280340
383,Kudahuvadhoo,2.6708,72.8944,81.73,76,88,5.48,MV,1660280341
384,Ulaangom,49.9811,92.0667,72.7,52,26,6.71,MN,1660280343
385,Port Hardy,50.6996,-127.4199,60.98,82,20,4.61,CA,1660280344
386,Beloha,-25.1667,45.05,66.61,59,0,11.41,MG,1660280347
387,Methóni,36.8197,21.7049,79.21,63,5,2.59,GR,1660280348
388,Maunabo,18.0072,-65.8993,80.89,82,98,11.41,PR,1660280350
389,Port Hedland,-20.3167,118.5667,80.65,24,22,17.27,AU,1660280351
390,Terrace Bay,48.7834,-87.1,51.3,71,0,2.8,CA,1660280352
391,Abu Dhabi,24.4667,54.3667,95.11,80,72,5.75,AE,1660280155
392,Halifax,44.6453,-63.5724,66.52,93,95,4.0,CA,1660280345
393,Sittwe,20.15,92.9,82.0,81,95,9.48,MM,1660280356
394,Ves'yegonsk,58.664,37.2604,64.8,63,96,8.72,RU,1660280357
395,Volkhov,59.9258,32.3382,63.86,80,89,7.58,RU,1660280359
396,Progreso,21.2833,-89.6667,78.12,88,38,7.14,MX,1660280360
397,Tazovsky,67.4667,78.7,53.83,66,100,12.3,RU,1660280361
398,Karpinsk,59.7654,60.0085,64.89,55,95,10.36,RU,1660280363
399,Uglovoye,44.8215,33.6045,72.01,65,0,1.48,UA,1660280365
400,São João da Barra,-21.6403,-41.0511,64.4,84,23,11.03,BR,1660280367
401,Iwaki,37.05,140.8833,92.01,73,100,1.01,JP,1660280369
402,Bonoua,5.2741,-3.595,74.82,91,99,6.06,CI,1660280370
403,Korla,41.7597,86.1469,92.08,22,81,18.16,CN,1660280371
404,Bermeo,43.4209,-2.7215,73.24,88,13,10.6,ES,1660280373
405,Maiduguri,11.8464,13.1603,71.71,87,100,10.42,NG,1660280374
406,Karpathos,35.507,27.2132,75.16,83,20,28.77,GR,1660280375
407,Devils Lake,48.1128,-98.8651,66.94,75,100,5.99,US,1660280377
408,Cabedelo,-6.9811,-34.8339,72.27,84,19,5.46,BR,1660280378
409,Marzuq,14.4,46.4667,79.88,57,75,9.15,YE,1660280379
410,Viseu,40.661,-7.9097,58.21,88,0,1.9,PT,1660280381
411,Neturhāt,23.4833,84.2667,69.49,93,100,5.75,IN,1660280382
412,Yeniseysk,58.4497,92.1703,69.44,40,7,4.27,RU,1660280383
413,Karabanovo,56.3167,38.7,64.45,58,28,3.4,RU,1660280385
414,Nyzy,50.7828,34.7844,70.77,71,97,14.65,UA,1660280386
415,Sur,22.5667,59.5289,93.04,51,100,5.37,OM,1660280389
416,Gandai,21.6667,81.1,77.22,88,100,10.38,IN,1660280390
417,Impfondo,1.6381,18.0667,70.79,92,100,3.09,CG,1660280391
418,Christchurch,-43.5333,172.6333,47.48,59,20,5.75,NZ,1660280192
419,Burnie,-41.0667,145.9167,51.94,83,94,7.09,AU,1660280394
420,Turukhansk,65.8167,87.9833,60.69,41,76,6.35,RU,1660280395
421,Makkah al Mukarramah,21.4267,39.8261,87.26,67,82,3.91,SA,1660280197
422,Odienné,9.51,-7.5692,69.6,97,100,4.07,CI,1660280397
423,Ukiah,39.1502,-123.2078,67.89,56,0,6.91,US,1660279996
424,Along,28.1667,94.7667,94.28,49,81,2.46,IN,1660280400
425,Nālūt,30.3333,10.85,78.82,36,0,8.81,LY,1660280401
426,Barra Patuca,15.8,-84.2833,78.55,86,10,3.91,HN,1660280405
427,Anadyr,64.75,177.4833,61.3,67,40,6.71,RU,1660280408
428,Tomatlán,19.9333,-105.25,76.57,94,100,2.91,MX,1660280409
429,Marrakesh,31.6315,-8.0083,78.87,50,0,4.61,MA,1660280337
430,Siswā Bāzār,27.15,83.7667,90.3,61,14,14.97,IN,1660280413
431,Havøysund,70.9963,24.6622,50.23,88,100,38.7,NO,1660280416
432,Samarai,-10.6167,150.6667,76.78,92,99,20.31,PG,1660280417
433,Laurel,39.0993,-76.8483,76.51,77,0,4.61,US,1660280349
434,Armidale,-30.5167,151.65,50.59,84,100,8.79,AU,1660280419
435,Gizo Government Station,-8.103,156.8419,82.76,72,100,6.11,SB,1660280421
436,Champotón,19.35,-90.7167,75.9,90,75,6.4,MX,1660280422
437,Osmeña,10.5208,119.9258,84.36,69,42,2.64,PH,1660280424
438,Okhotsk,59.3833,143.3,60.8,86,99,7.43,RU,1660280425
439,Champerico,14.3,-91.9167,80.87,76,96,2.71,GT,1660280427
440,Bouca,6.5105,18.2733,68.97,99,100,2.55,CF,1660280428
441,Grand Island,40.925,-98.342,75.02,67,22,5.01,US,1660280429
442,Marovoay,-16.1,46.6333,72.54,50,0,11.03,MG,1660280431
443,Mazyr,52.0495,29.2456,65.64,79,56,10.58,BY,1660280432
444,Grand Baie,-20.0182,57.5802,70.45,68,93,11.99,MU,1660280375
445,Russell,32.3502,-85.1999,74.91,91,90,4.72,US,1660280414
446,Waipawa,-41.4122,175.5153,43.88,73,72,3.96,NZ,1660280436
447,Gresham,45.4982,-122.4315,75.43,64,6,1.19,US,1660280437
448,Santa Cruz de la Sierra,-17.8,-63.1667,58.46,72,0,6.91,BO,1660280375
449,Isla Vista,34.4133,-119.861,74.44,67,93,8.48,US,1660280243
450,Seguin,29.5688,-97.9647,80.38,87,100,1.01,US,1660280441
451,Mnogovershinnyy,53.9353,139.9242,57.7,87,100,1.57,RU,1660280442
452,Port Hueneme,34.1478,-119.1951,81.25,73,0,3.44,US,1660280443
453,Weligama,5.9667,80.4167,83.53,73,45,12.66,LK,1660280445
454,Soyo,-6.1349,12.3689,67.68,92,29,3.47,AO,1660280447
455,County Wicklow,53.0,-6.4167,50.95,90,4,3.36,IE,1660280449
456,Fuzhou,26.0614,119.3061,102.33,37,8,3.02,CN,1660280405
457,Ruwi,23.5996,58.5507,93.72,53,100,5.44,OM,1660280451
458,Arman',59.7,150.1667,71.02,83,99,5.75,RU,1660280453
459,Basti,26.8,82.7167,92.3,53,10,16.2,IN,1660280454
460,Molteno,-31.3968,26.3625,48.22,38,75,13.13,ZA,1660280455
461,Lompoc,34.6391,-120.4579,63.01,90,100,9.22,US,1660280284
462,Ndélé,8.4109,20.6473,69.37,99,100,2.71,CF,1660280458
463,Road Town,18.4167,-64.6167,81.32,75,96,18.43,VG,1660280254
464,Ambilobe,-13.2,49.05,75.81,46,4,8.5,MG,1660280461
465,Hervey Bay,-25.2986,152.8535,72.01,67,100,4.0,AU,1660280463
466,Broome,42.2506,-75.833,59.97,93,0,1.01,US,1660280465
467,Timizart,36.8,4.2667,75.81,31,0,4.68,DZ,1660280466
468,George Town,5.4112,100.3354,89.89,68,20,8.05,MY,1660280454
469,Paraíso,9.8383,-83.8656,66.88,100,100,1.16,CR,1660280469
470,Namalenga,-10.95,39.1,69.84,73,92,5.03,TZ,1660280471
471,Port-Gentil,-0.7193,8.7815,73.36,88,75,5.75,GA,1660280473
472,Shymkent,42.3,69.6,84.79,23,0,11.18,KZ,1660280415
473,Acapulco de Juárez,16.8634,-99.8901,80.22,82,99,2.17,MX,1660280441
474,Ambon City,-3.6954,128.1814,84.34,74,40,4.61,ID,1660280476
475,Iquique,-20.2208,-70.1431,58.03,74,2,1.39,CL,1660280478
476,Morro Bay,35.3658,-120.8499,70.57,72,82,2.62,US,1660280479
477,Nizwá,22.9333,57.5333,96.46,29,100,1.72,OM,1660280480
478,Pulaski,34.7668,-92.3001,77.09,74,2,5.01,US,1660280324
479,Vao,-22.6667,167.4833,68.86,60,10,20.42,NC,1660280483
480,Tikrit,34.6071,43.6782,91.45,38,0,19.69,IQ,1660280484
481,Alta Floresta,-9.8756,-56.0861,68.25,53,5,3.78,BR,1660280242
482,Iisaku Parish,59.1014,27.3081,62.94,80,68,7.92,EE,1660280486
483,Yar-Sale,66.8333,70.8333,52.65,86,100,18.25,RU,1660280488
484,Río Gallegos,-51.6226,-69.2181,34.66,91,78,10.6,AR,1660280489
485,Ouésso,1.6136,16.0517,69.6,94,93,2.55,CG,1660280490
486,Ostrovnoy,68.0531,39.5131,54.45,75,33,20.0,RU,1660280492
487,Polangi,11.5265,124.9212,88.2,63,65,5.61,PH,1660280493
488,Tornio,65.8481,24.1466,55.42,64,75,15.66,FI,1660280495
489,Iberia,29.9502,-91.7507,76.03,94,100,5.75,US,1660280496
490,Vangaindrano,-23.35,47.6,66.51,84,98,3.78,MG,1660280497
491,Sabang,5.8933,95.3214,82.81,72,89,14.88,ID,1660280499
492,Buala,-8.145,159.5921,82.49,73,82,3.09,SB,1660280500
493,Lahaina,20.8783,-156.6825,79.81,85,70,12.26,US,1660280412
494,Suşehri,40.1644,38.0867,68.2,58,6,2.21,TR,1660280502
495,Bichena,10.45,38.2,55.29,86,100,2.17,ET,1660280504
496,Taoudenni,22.6783,-3.9836,93.29,22,0,8.77,ML,1660280506
497,Chik,54.9928,82.4311,71.35,64,0,8.95,RU,1660280508
498,Nortelândia,-14.4547,-56.8028,60.8,46,0,1.05,BR,1660280509
499,Katobu,-4.9408,122.5276,81.43,84,36,5.86,ID,1660280511
500,Raudeberg,61.9875,5.1352,54.27,93,100,9.04,NO,1660280512
501,Ixtapa,20.7,-105.2,82.22,81,98,5.01,MX,1660280421
502,Dingle,10.9995,122.6711,86.14,72,84,4.72,PH,1660280515
503,Punta Alta,-38.8759,-62.0736,49.57,70,58,9.66,AR,1660280517
504,Jahāngīrābād,28.4167,78.1,91.2,53,15,15.32,IN,1660280518
505,Rājgarh,28.6333,75.3833,92.8,46,40,18.39,IN,1660280519
506,Iaçu,-12.7672,-40.2117,66.81,87,2,1.97,BR,1660280521
507,Lüderitz,-26.6481,15.1594,54.77,85,6,8.46,NA,1660280522
508,Bauchi,10.5,10.0,69.01,91,100,3.49,NG,1660280524
509,Santa Rosa,14.3122,121.1114,91.09,57,37,4.61,PH,1660280525
510,Dok Kham Tai,19.1624,99.9934,74.19,97,100,5.26,TH,1660280526
511,Constantine,36.365,6.6147,65.61,59,0,1.14,DZ,1660280301
512,Patea,-39.7583,174.4833,47.98,70,60,4.03,NZ,1660280529
513,Samaipata,-18.15,-63.8667,40.23,97,2,2.86,BO,1660280530
514,Verāval,20.9,70.3667,81.05,90,99,26.08,IN,1660280532
515,Maun,-19.9833,23.4167,55.18,32,0,5.1,BW,1660280533
516,Nizhniy Kuranakh,58.8353,125.4869,60.55,93,100,1.63,RU,1660280534
517,Antalaha,-14.9003,50.2788,68.81,87,96,9.91,MG,1660280536
518,Nantucket,41.2835,-70.0995,68.11,72,0,3.44,US,1660280537
519,Te Kauwhata,-37.4,175.15,54.27,66,5,3.85,NZ,1660280541
520,Campoverde,-8.4753,-74.8058,71.11,86,8,0.96,PE,1660280542
521,Narasannapeta,18.4167,84.05,88.97,61,98,6.17,IN,1660280543
522,Oro Valley,32.3909,-110.9665,84.38,64,91,1.99,US,1660280545
523,Nisibis,37.0778,41.2178,87.67,43,0,7.34,TR,1660280546
524,Kashin,57.3592,37.6081,59.94,67,100,6.49,RU,1660280547
525,Sisimiut,66.9395,-53.6735,40.77,90,68,7.25,GL,1660280549
526,Anjiang,27.3194,110.1031,96.04,45,56,4.97,CN,1660280550
527,Kangaatsiaq,68.3065,-53.4641,38.62,89,86,11.41,GL,1660280551
528,Kinsale,51.7075,-8.5306,63.77,67,20,6.91,IE,1660280553
529,Deputatsky,69.3,139.9,47.3,79,100,4.61,RU,1660280554
